rosbagTimestamp,header,seq,stamp,secs,nsecs,frame_id,genesys_id,header_version,format_id,format_version,serial_number,alias,config_id,config_format,config_version,config_size,byte_offset,slice_size,slice_data,acc_body_hr,x,y,z,rate_body_hr,x,y,z,rate_body,x,y,z,rate_hor,x,y,z,acc_body,x,y,z,acc_hor,x,y,z,ext_vel_an_x,ext_vel_an_y,ext_vel_dig_x,ext_vel_dig_y,ext_vel_dig_pulses_x,ext_vel_dig_pulses_y,ext_vel_x_corrected,ext_vel_y_corrected,inv_path_radius,side_slip_angle,dist_trav,trig_rising_1,trig_falling_1,trig_rising_2,trig_falling_2,trig_rising_3,trig_falling_3,trig_rising_4,trig_falling_4,system_ta,system_temp,system_time_since_init,system_dsp_load,gnss_lat_abs,gnss_long_abs,gnss_pos_rel_x,gnss_pos_rel_y,gnss_stddev_lat,gnss_stddev_long,gnss_stddev_height,gnss_vel_frame,x,y,z,gnss_vel_latency,gnss_stddev_vel,x,y,z,gnss_time_msec,gnss_time_week,gnss_trigger,gnss_diffage,gnss_sats_used,gnss_sats_visible,gnss_sats_dualant_used,gnss_sats_dualant_visible,gnss_log_delay,gnss_receiver_load,gnss_base_nr,ins_roll,ins_pitch,ins_yaw,gnss_cog,gnss_height,undulation,gnss_dualant_time_msec,gnss_dualant_time_week,gnss_dualant_heading,gnss_dualant_pitch,gnss_dualant_stddev_heading,gnss_dualant_stddev_pitch,gnss_dualant_stddev_heading_hr,gnss_dualant_stddev_pitch_hr,ins_height,ins_time_msec,ins_time_week,leap_seconds,ins_lat_abs,ins_long_abs,ins_pos_rel_x,ins_pos_rel_y,ins_vel_hor,x,y,z,ins_vel_frame,x,y,z,ins_stddev_lat,ins_stddev_long,ins_stddev_height,ins_stddev_vel,x,y,z,ins_stddev_roll,ins_stddev_pitch,ins_stddev_yaw,an1,an2,an3,an4,kf_lat_stimulated,kf_long_stimulated,kf_steady_state,gnss_receiver_error,gnss_receiver_status,time_msec,time_nsec,poi_1,acc_body,x,y,z,acc_hor,x,y,z,inv_path_radius,side_slip_angle,dist_trav,ins_height,ins_lat_abs,ins_long_abs,ins_pos_rel_x,ins_pos_rel_y,ins_vel_hor,x,y,z,poi_2,acc_body,x,y,z,acc_hor,x,y,z,inv_path_radius,side_slip_angle,dist_trav,ins_height,ins_lat_abs,ins_long_abs,ins_pos_rel_x,ins_pos_rel_y,ins_vel_hor,x,y,z,poi_3,acc_body,x,y,z,acc_hor,x,y,z,inv_path_radius,side_slip_angle,dist_trav,ins_height,ins_lat_abs,ins_long_abs,ins_pos_rel_x,ins_pos_rel_y,ins_vel_hor,x,y,z,poi_4,acc_body,x,y,z,acc_hor,x,y,z,inv_path_radius,side_slip_angle,dist_trav,ins_height,ins_lat_abs,ins_long_abs,ins_pos_rel_x,ins_pos_rel_y,ins_vel_hor,x,y,z,poi_5,acc_body,x,y,z,acc_hor,x,y,z,inv_path_radius,side_slip_angle,dist_trav,ins_height,ins_lat_abs,ins_long_abs,ins_pos_rel_x,ins_pos_rel_y,ins_vel_hor,x,y,z,poi_6,acc_body,x,y,z,acc_hor,x,y,z,inv_path_radius,side_slip_angle,dist_trav,ins_height,ins_lat_abs,ins_long_abs,ins_pos_rel_x,ins_pos_rel_y,ins_vel_hor,x,y,z,poi_7,acc_body,x,y,z,acc_hor,x,y,z,inv_path_radius,side_slip_angle,dist_trav,ins_height,ins_lat_abs,ins_long_abs,ins_pos_rel_x,ins_pos_rel_y,ins_vel_hor,x,y,z,poi_8,acc_body,x,y,z,acc_hor,x,y,z,inv_path_radius,side_slip_angle,dist_trav,ins_height,ins_lat_abs,ins_long_abs,ins_pos_rel_x,ins_pos_rel_y,ins_vel_hor,x,y,z,error_warning,error_1,error_2,warn_1,error_3,status,status_gnss_mode,status_standstill,status_skidding,status_external_vel_out,status_trig_gnss,status_signal_in3,status_signal_in2,status_signal_in1,status_alignment,status_ahrs_ins,status_dead_reckoning,status_synclock,status_evk_activ,status_evk_estimates,status_heading_executed,status_config_changed,status_tilt,status_pos,status_count,status_kalmanfilter_settled,status_kf_lat_stimulated,status_kf_long_stimulated,status_kf_steady_state,status_speed,status_robot
"1716990952438573269,,167836,,316831613,2566204032,""""""adma"""""",""""""GBIN"""""",""""""0101"""""",0,""""""0000"""""",30357,0,10,2,16973824,17167,6736,4,1970304117,,0.0128,-0.0064,1.0107000000000002,,0.5726,0.1199,-0.8334,,0.5700000000000001,0.12,-0.8300000000000001,,0.58,0.1,-0.85,,0.0128,-0.0064,1.0108000000000001,,0.0128,-0.0128,1.0108000000000001,12.77,0.21,0.0,0.0,0,0,12.77,0.0,-0.0011,-0.8200000000000001,583818.33,0,0,0,0,0,0,0,0,10000,45.0,4367,8.4,48.784181399999994,11.4724553,-48.58,-53.44,0.01,0.009000000000000001,0.018000000000000002,,-6.915,-10.805,-0.165,0.025,,0.044,0.041,0.083,309352350,2316,31,1.4000000000000001,17,17,0,0,0,39.0,""""""0"""""",0.32,0.06,123.15,237.39000000000001,373.03000000000003,46.300000000000004,0,0,0.0,0.0,0.0,0.0,0.0,0.0,372.13,309352410,2316,18,48.7841787,11.4724512,-48.89,-53.730000000000004,,13.0,-0.185,-0.015,,-6.955,-10.985,0.015,655.0,655.0,655.0,,0.01,0.01,0.01,0.01,0.01,0.02,0.005,0.003,-0.001,0.001,100,100,100,0,0,316831613914.0,3.16831613914e+17,,,0.0228,0.0112,1.0328,,0.024,0.0056,1.0328,-0.0011,-0.86,583819.74,371.75,48.7841749,11.472439999999999,-49.31,-54.56,,13.0,-0.195,-0.015,,,0.012,-0.007200000000000001,1.0108000000000001,,0.0128,-0.0128,1.0108000000000001,-0.0011,-0.8200000000000001,583825.52,372.13,48.7841787,11.4724512,-48.89,-53.730000000000004,,13.0,-0.185,-0.015,,,0.012,-0.007200000000000001,1.0108000000000001,,0.0128,-0.0128,1.0108000000000001,-0.0011,-0.8200000000000001,583825.52,372.13,48.7841787,11.4724512,-48.89,-53.730000000000004,,13.0,-0.185,-0.015,,,0.012,-0.007200000000000001,1.0108000000000001,,0.0128,-0.0128,1.0108000000000001,-0.0011,-0.8200000000000001,583825.52,372.13,48.7841787,11.4724512,-48.89,-53.730000000000004,,13.0,-0.185,-0.015,,,0.012,-0.007200000000000001,1.0108000000000001,,0.0128,-0.0128,1.0108000000000001,-0.0011,-0.8200000000000001,583825.52,372.13,48.7841787,11.4724512,-48.89,-53.730000000000004,,13.0,-0.185,-0.015,,,0.012,-0.007200000000000001,1.0108000000000001,,0.0128,-0.0128,1.0108000000000001,-0.0011,-0.8200000000000001,583825.52,372.13,48.7841787,11.4724512,-48.89,-53.730000000000004,,13.0,-0.185,-0.015,,,0.012,-0.007200000000000001,1.0108000000000001,,0.0128,-0.0128,1.0108000000000001,-0.0011,-0.8200000000000001,583825.52,372.13,48.7841787,11.4724512,-48.89,-53.730000000000004,,13.0,-0.185,-0.015,,,0.012,-0.007200000000000001,1.0108000000000001,,0.0128,-0.0128,1.0108000000000001,-0.0011,-0.8200000000000001,583825.52,372.13,48.7841787,11.4724512,-48.89,-53.730000000000004,,13.0,-0.185,-0.015,,0,0,0,0,,8,0,0,0,1,0,0,0,0,1,0,1,0,0,1,0,2,0,102,1,1,1,1,2,9"
"1716990952438586744,,167837,,316831613,2576204032,""""""adma"""""",""""""GBIN"""""",""""""0101"""""",0,""""""0000"""""",30357,0,10,2,16973824,17167,6740,4,1718558836,,-0.0068000000000000005,0.01,0.9793000000000001,,0.2006,0.0539,-0.8661000000000001,,0.2,0.05,-0.87,,0.21,0.05,-0.88,,-0.0068000000000000005,0.01,0.9792000000000001,,-0.006,0.0048000000000000004,0.9796,12.765,0.20500000000000002,0.0,0.0,0,0,12.77,0.0,-0.0012000000000000001,-0.8200000000000001,583818.46,0,0,0,0,0,0,0,0,10000,45.0,4367,8.5,48.7841783,11.4724478,-48.92,-53.980000000000004,0.01,0.009000000000000001,0.018000000000000002,,-6.87,-10.895,0.07,0.025,,0.045,0.042,0.08600000000000001,309352400,2316,0,1.4000000000000001,17,17,0,0,1,39.0,""""""0"""""",0.32,0.06,123.14,237.76,373.02,46.300000000000004,0,0,0.0,0.0,0.0,0.0,0.0,0.0,372.13,309352420,2316,18,48.7841781,11.4724498,-48.95,-53.84,,12.995000000000001,-0.185,-0.015,,-6.95,-10.98,0.015,0.61,0.47000000000000003,0.22,,0.01,0.01,0.01,0.01,0.01,0.02,0.005,0.003,-0.001,0.001,100,100,100,0,0,316831613924.0,3.16831613924e+17,,,-0.0044,-0.0204,0.994,,-0.0032,-0.026000000000000002,0.994,-0.0012000000000000001,-0.86,583819.87,371.75,48.7841743,11.4724386,-49.370000000000005,-54.67,,12.995000000000001,-0.195,-0.02,,,-0.0068000000000000005,0.010400000000000001,0.9796,,-0.006,0.0048000000000000004,0.9796,-0.0012000000000000001,-0.81,583825.65,372.13,48.7841781,11.4724498,-48.95,-53.84,,12.995000000000001,-0.185,-0.015,,,-0.0068000000000000005,0.010400000000000001,0.9796,,-0.006,0.0048000000000000004,0.9796,-0.0012000000000000001,-0.81,583825.65,372.13,48.7841781,11.4724498,-48.95,-53.84,,12.995000000000001,-0.185,-0.015,,,-0.0068000000000000005,0.010400000000000001,0.9796,,-0.006,0.0048000000000000004,0.9796,-0.0012000000000000001,-0.81,583825.65,372.13,48.7841781,11.4724498,-48.95,-53.84,,12.995000000000001,-0.185,-0.015,,,-0.0068000000000000005,0.010400000000000001,0.9796,,-0.006,0.0048000000000000004,0.9796,-0.0012000000000000001,-0.81,583825.65,372.13,48.7841781,11.4724498,-48.95,-53.84,,12.995000000000001,-0.185,-0.015,,,-0.0068000000000000005,0.010400000000000001,0.9796,,-0.006,0.0048000000000000004,0.9796,-0.0012000000000000001,-0.81,583825.65,372.13,48.7841781,11.4724498,-48.95,-53.84,,12.995000000000001,-0.185,-0.015,,,-0.0068000000000000005,0.010400000000000001,0.9796,,-0.006,0.0048000000000000004,0.9796,-0.0012000000000000001,-0.81,583825.65,372.13,48.7841781,11.4724498,-48.95,-53.84,,12.995000000000001,-0.185,-0.015,,,-0.0068000000000000005,0.010400000000000001,0.9796,,-0.006,0.0048000000000000004,0.9796,-0.0012000000000000001,-0.81,583825.65,372.13,48.7841781,11.4724498,-48.95,-53.84,,12.995000000000001,-0.185,-0.015,,0,0,0,0,,8,0,0,0,0,0,0,0,0,1,0,1,0,0,1,0,2,2,103,1,1,1,1,2,9"
"1716990952438593445,,167838,,316831613,2586204032,""""""adma"""""",""""""GBIN"""""",""""""0101"""""",0,""""""0000"""""",30357,0,10,2,16973824,17167,6744,4,1397639456,,-0.0112,-0.005200000000000001,1.0284,,0.39080000000000004,-0.1699,-0.8925000000000001,,0.39,-0.17,-0.89,,0.39,-0.18,-0.91,,-0.0112,-0.005200000000000001,1.0284,,-0.0112,-0.010400000000000001,1.0284,12.77,0.20500000000000002,0.0,0.0,0,0,12.77,0.0,-0.0012000000000000001,-0.81,583818.59,0,0,0,0,0,0,0,0,10000,45.0,4367,8.5,48.7841783,11.4724478,-48.92,-53.980000000000004,0.01,0.009000000000000001,0.018000000000000002,,-6.87,-10.895,0.07,0.025,,0.045,0.042,0.08600000000000001,309352400,2316,0,1.4000000000000001,17,17,0,0,0,39.0,""""""0"""""",0.32,0.05,123.13000000000001,237.76,373.02,46.300000000000004,0,0,0.0,0.0,0.0,0.0,0.0,0.0,372.13,309352430,2316,18,48.7841775,11.4724483,-49.02,-53.95,,12.995000000000001,-0.18,-0.015,,-6.95,-10.98,0.015,655.0,655.0,403.99,,0.01,0.01,0.01,0.01,0.01,0.02,0.005,0.0035,-0.001,0.001,100,100,100,0,0,316831613934.0,3.16831613934e+17,,,0.0032,0.0032,1.0636,,0.0044,-0.0028,1.0636,-0.0012000000000000001,-0.86,583820.0,371.75,48.7841737,11.472437099999999,-49.44,-54.78,,12.995000000000001,-0.195,-0.01,,,-0.012,-0.0048000000000000004,1.0284,,-0.0112,-0.010400000000000001,1.0284,-0.0012000000000000001,-0.8,583825.78,372.13,48.7841775,11.4724483,-49.02,-53.95,,12.995000000000001,-0.18,-0.015,,,-0.012,-0.0048000000000000004,1.0284,,-0.0112,-0.010400000000000001,1.0284,-0.0012000000000000001,-0.8,583825.78,372.13,48.7841775,11.4724483,-49.02,-53.95,,12.995000000000001,-0.18,-0.015,,,-0.012,-0.0048000000000000004,1.0284,,-0.0112,-0.010400000000000001,1.0284,-0.0012000000000000001,-0.8,583825.78,372.13,48.7841775,11.4724483,-49.02,-53.95,,12.995000000000001,-0.18,-0.015,,,-0.012,-0.0048000000000000004,1.0284,,-0.0112,-0.010400000000000001,1.0284,-0.0012000000000000001,-0.8,583825.78,372.13,48.7841775,11.4724483,-49.02,-53.95,,12.995000000000001,-0.18,-0.015,,,-0.012,-0.0048000000000000004,1.0284,,-0.0112,-0.010400000000000001,1.0284,-0.0012000000000000001,-0.8,583825.78,372.13,48.7841775,11.4724483,-49.02,-53.95,,12.995000000000001,-0.18,-0.015,,,-0.012,-0.0048000000000000004,1.0284,,-0.0112,-0.010400000000000001,1.0284,-0.0012000000000000001,-0.8,583825.78,372.13,48.7841775,11.4724483,-49.02,-53.95,,12.995000000000001,-0.18,-0.015,,,-0.012,-0.0048000000000000004,1.0284,,-0.0112,-0.010400000000000001,1.0284,-0.0012000000000000001,-0.8,583825.78,372.13,48.7841775,11.4724483,-49.02,-53.95,,12.995000000000001,-0.18,-0.015,,0,0,0,0,,8,0,0,0,0,0,0,0,0,1,0,1,0,0,1,0,2,0,104,1,1,1,1,2,9"
"1716990952486609680,,167839,,316831613,2596204032,""""""adma"""""",""""""GBIN"""""",""""""0101"""""",0,""""""0000"""""",30357,0,10,2,16973824,17167,6748,4,1936674848,,-0.0132,-0.0473,1.0325,,0.2877,0.09870000000000001,-0.8148000000000001,,0.29,0.1,-0.81,,0.3,0.09,-0.8300000000000001,,-0.0132,-0.0472,1.0324,,-0.0152,-0.0524,1.0324,12.765,0.21,0.0,0.0,0,0,12.765,0.0,-0.0011,-0.8,583818.72,0,0,0,0,0,0,0,0,10000,45.0,4367,8.5,48.7841783,11.4724478,-48.92,-53.980000000000004,0.01,0.009000000000000001,0.018000000000000002,,-6.87,-10.895,0.07,0.025,,0.045,0.042,0.08600000000000001,309352400,2316,0,1.4000000000000001,17,17,0,0,0,39.0,""""""0"""""",0.33,0.06,123.13000000000001,237.76,373.02,46.300000000000004,0,0,0.0,0.0,0.0,0.0,0.0,0.0,372.13,309352440,2316,18,48.7841768,11.4724468,-49.09,-54.06,,12.995000000000001,-0.185,-0.01,,-6.945,-10.985,0.01,655.0,655.0,571.34,,0.01,0.01,0.01,0.01,0.01,0.02,0.005,0.0035,-0.001,0.001,100,100,100,0,0,316831613944.0,3.16831613944e+17,,,-0.0332,-0.04,0.9896,,-0.0324,-0.0456,0.9892000000000001,-0.0011,-0.87,583820.13,371.75,48.784172999999996,11.472435599999999,-49.51,-54.89,,12.99,-0.195,-0.015,,,-0.016,-0.0468,1.0328,,-0.0152,-0.0524,1.0324,-0.0011,-0.8200000000000001,583825.91,372.13,48.7841768,11.4724468,-49.09,-54.06,,12.995000000000001,-0.185,-0.01,,,-0.016,-0.0468,1.0328,,-0.0152,-0.0524,1.0324,-0.0011,-0.8200000000000001,583825.91,372.13,48.7841768,11.4724468,-49.09,-54.06,,12.995000000000001,-0.185,-0.01,,,-0.016,-0.0468,1.0328,,-0.0152,-0.0524,1.0324,-0.0011,-0.8200000000000001,583825.91,372.13,48.7841768,11.4724468,-49.09,-54.06,,12.995000000000001,-0.185,-0.01,,,-0.016,-0.0468,1.0328,,-0.0152,-0.0524,1.0324,-0.0011,-0.8200000000000001,583825.91,372.13,48.7841768,11.4724468,-49.09,-54.06,,12.995000000000001,-0.185,-0.01,,,-0.016,-0.0468,1.0328,,-0.0152,-0.0524,1.0324,-0.0011,-0.8200000000000001,583825.91,372.13,48.7841768,11.4724468,-49.09,-54.06,,12.995000000000001,-0.185,-0.01,,,-0.016,-0.0468,1.0328,,-0.0152,-0.0524,1.0324,-0.0011,-0.8200000000000001,583825.91,372.13,48.7841768,11.4724468,-49.09,-54.06,,12.995000000000001,-0.185,-0.01,,,-0.016,-0.0468,1.0328,,-0.0152,-0.0524,1.0324,-0.0011,-0.8200000000000001,583825.91,372.13,48.7841768,11.4724468,-49.09,-54.06,,12.995000000000001,-0.185,-0.01,,0,0,0,0,,8,0,0,0,0,0,0,0,0,1,0,1,0,0,1,0,2,0,105,1,1,1,1,2,9"
"1716990952486646046,,167840,,316831613,2606204032,""""""adma"""""",""""""GBIN"""""",""""""0101"""""",0,""""""0000"""""",30357,0,10,2,16973824,17167,6752,4,1869182057,,0.0161,-0.025400000000000002,1.0157,,-0.2717,0.0408,-0.6659,,-0.27,0.04,-0.67,,-0.26,0.06,-0.68,,0.016,-0.0252,1.0156,,0.0152,-0.032,1.0156,12.77,0.21,0.0,0.0,0,0,12.77,0.0,-0.0009000000000000001,-0.8200000000000001,583818.85,0,0,0,0,0,0,0,0,10000,45.0,4367,8.5,48.7841783,11.4724478,-48.92,-53.980000000000004,0.01,0.009000000000000001,0.018000000000000002,,-6.87,-10.895,0.07,0.025,,0.045,0.042,0.08600000000000001,309352400,2316,0,1.4000000000000001,17,17,0,0,0,39.0,""""""0"""""",0.32,0.06,123.12,237.76,373.02,46.300000000000004,0,0,0.0,0.0,0.0,0.0,0.0,0.0,372.13,309352450,2316,18,48.7841762,11.472445299999999,-49.160000000000004,-54.17,,12.995000000000001,-0.185,-0.01,,-6.945,-10.985,0.01,655.0,655.0,655.0,,0.01,0.01,0.01,0.01,0.01,0.02,0.005,0.0035,-0.001,0.001,100,100,100,0,0,316831613954.0,3.16831613954e+17,,,0.0188,-0.04,1.0308,,0.02,-0.0456,1.0308,-0.0009000000000000001,-0.88,583820.26,371.75,48.784172399999996,11.4724341,-49.58,-54.99,,12.995000000000001,-0.2,-0.01,,,0.014400000000000001,-0.026000000000000002,1.016,,0.0152,-0.032,1.0156,-0.0009000000000000001,-0.8300000000000001,583826.04,372.13,48.7841762,11.472445299999999,-49.160000000000004,-54.17,,12.995000000000001,-0.185,-0.01,,,0.014400000000000001,-0.026000000000000002,1.016,,0.0152,-0.032,1.0156,-0.0009000000000000001,-0.8300000000000001,583826.04,372.13,48.7841762,11.472445299999999,-49.160000000000004,-54.17,,12.995000000000001,-0.185,-0.01,,,0.014400000000000001,-0.026000000000000002,1.016,,0.0152,-0.032,1.0156,-0.0009000000000000001,-0.8300000000000001,583826.04,372.13,48.7841762,11.472445299999999,-49.160000000000004,-54.17,,12.995000000000001,-0.185,-0.01,,,0.014400000000000001,-0.026000000000000002,1.016,,0.0152,-0.032,1.0156,-0.0009000000000000001,-0.8300000000000001,583826.04,372.13,48.7841762,11.472445299999999,-49.160000000000004,-54.17,,12.995000000000001,-0.185,-0.01,,,0.014400000000000001,-0.026000000000000002,1.016,,0.0152,-0.032,1.0156,-0.0009000000000000001,-0.8300000000000001,583826.04,372.13,48.7841762,11.472445299999999,-49.160000000000004,-54.17,,12.995000000000001,-0.185,-0.01,,,0.014400000000000001,-0.026000000000000002,1.016,,0.0152,-0.032,1.0156,-0.0009000000000000001,-0.8300000000000001,583826.04,372.13,48.7841762,11.472445299999999,-49.160000000000004,-54.17,,12.995000000000001,-0.185,-0.01,,,0.014400000000000001,-0.026000000000000002,1.016,,0.0152,-0.032,1.0156,-0.0009000000000000001,-0.8300000000000001,583826.04,372.13,48.7841762,11.472445299999999,-49.160000000000004,-54.17,,12.995000000000001,-0.185,-0.01,,0,0,0,0,,8,0,0,0,0,0,0,0,0,1,0,1,0,0,1,0,2,0,106,1,1,1,1,2,9"
"1716990952486665032,,167841,,316831613,2616204032,""""""adma"""""",""""""GBIN"""""",""""""0101"""""",0,""""""0000"""""",30357,0,10,2,16973824,17167,6756,4,1699881070,,-0.0082,-0.011000000000000001,1.0382,,0.1178,0.1632,-0.6241,,0.12,0.16,-0.62,,0.13,0.16,-0.64,,-0.008400000000000001,-0.0112,1.038,,-0.008400000000000001,-0.0164,1.0384,12.77,0.215,0.0,0.0,0,0,12.77,0.0,-0.0009000000000000001,-0.8300000000000001,583818.98,0,0,0,0,0,0,0,0,10000,45.0,4367,8.5,48.7841783,11.4724478,-48.92,-53.980000000000004,0.01,0.009000000000000001,0.018000000000000002,,-6.87,-10.895,0.07,0.025,,0.045,0.042,0.08600000000000001,309352400,2316,31,1.4000000000000001,17,17,0,0,0,39.0,""""""0"""""",0.33,0.06,123.11,237.76,373.02,46.300000000000004,0,0,0.0,0.0,0.0,0.0,0.0,0.0,372.13,309352460,2316,18,48.7841756,11.472443799999999,-49.230000000000004,-54.28,,12.995000000000001,-0.185,-0.005,,-6.94,-10.985,0.005,655.0,655.0,655.0,,0.01,0.01,0.01,0.01,0.01,0.02,0.005,0.003,-0.001,0.001,100,100,100,0,0,316831613964.0,3.16831613964e+17,,,-0.015600000000000001,0.023200000000000002,1.0144,,-0.0148,0.0172,1.0144,-0.0009000000000000001,-0.87,583820.39,371.75,48.784171799999996,11.4724326,-49.65,-55.1,,12.995000000000001,-0.195,-0.01,,,-0.009600000000000001,-0.0108,1.0384,,-0.008400000000000001,-0.0164,1.0384,-0.0009000000000000001,-0.8300000000000001,583826.17,372.13,48.7841756,11.472443799999999,-49.230000000000004,-54.28,,12.995000000000001,-0.185,-0.005,,,-0.009600000000000001,-0.0108,1.0384,,-0.008400000000000001,-0.0164,1.0384,-0.0009000000000000001,-0.8300000000000001,583826.17,372.13,48.7841756,11.472443799999999,-49.230000000000004,-54.28,,12.995000000000001,-0.185,-0.005,,,-0.009600000000000001,-0.0108,1.0384,,-0.008400000000000001,-0.0164,1.0384,-0.0009000000000000001,-0.8300000000000001,583826.17,372.13,48.7841756,11.472443799999999,-49.230000000000004,-54.28,,12.995000000000001,-0.185,-0.005,,,-0.009600000000000001,-0.0108,1.0384,,-0.008400000000000001,-0.0164,1.0384,-0.0009000000000000001,-0.8300000000000001,583826.17,372.13,48.7841756,11.472443799999999,-49.230000000000004,-54.28,,12.995000000000001,-0.185,-0.005,,,-0.009600000000000001,-0.0108,1.0384,,-0.008400000000000001,-0.0164,1.0384,-0.0009000000000000001,-0.8300000000000001,583826.17,372.13,48.7841756,11.472443799999999,-49.230000000000004,-54.28,,12.995000000000001,-0.185,-0.005,,,-0.009600000000000001,-0.0108,1.0384,,-0.008400000000000001,-0.0164,1.0384,-0.0009000000000000001,-0.8300000000000001,583826.17,372.13,48.7841756,11.472443799999999,-49.230000000000004,-54.28,,12.995000000000001,-0.185,-0.005,,,-0.009600000000000001,-0.0108,1.0384,,-0.008400000000000001,-0.0164,1.0384,-0.0009000000000000001,-0.8300000000000001,583826.17,372.13,48.7841756,11.472443799999999,-49.230000000000004,-54.28,,12.995000000000001,-0.185,-0.005,,0,0,0,0,,8,0,0,0,1,0,0,0,0,1,0,1,0,0,1,0,2,0,107,1,1,1,1,2,9"
"1716990952486679205,,167842,,316831613,2626204032,""""""adma"""""",""""""GBIN"""""",""""""0101"""""",0,""""""0000"""""",30357,0,10,2,16973824,17167,6760,4,1769234796,,-0.0173,0.0218,1.0084,,0.3166,0.7622,-0.776,,0.32,0.76,-0.78,,0.36,0.75,-0.78,,-0.0172,0.0216,1.0084,,-0.015600000000000001,0.016800000000000002,1.0088000000000001,12.77,0.21,0.0,0.0,0,0,12.77,0.0,-0.0011,-0.8300000000000001,583819.11,0,0,0,0,0,0,0,0,10000,45.0,4367,8.5,48.7841752,11.4724405,-49.27,-54.53,0.007,0.007,0.015,,-6.890000000000001,-10.845,0.01,0.025,,0.044,0.045,0.088,309352450,2316,0,0.4,17,17,0,0,1,39.0,""""""0"""""",0.33,0.06,123.11,237.56,373.03000000000003,46.300000000000004,0,0,0.0,0.0,0.0,0.0,0.0,0.0,372.13,309352470,2316,18,48.784175,11.4724424,-49.300000000000004,-54.38,,12.99,-0.185,-0.005,,-6.94,-10.98,0.005,0.61,0.47000000000000003,0.31,,0.01,0.01,0.01,0.01,0.01,0.02,0.005,0.003,-0.001,0.001,100,100,100,0,0,316831613974.0,3.16831613974e+17,,,-0.0596,0.0132,0.908,,-0.0584,0.008,0.908,-0.0011,-0.85,583820.52,371.75,48.784171199999996,11.472431199999999,-49.72,-55.21,,12.985,-0.195,-0.02,,,-0.016800000000000002,0.0224,1.0084,,-0.015600000000000001,0.016800000000000002,1.0088000000000001,-0.0011,-0.81,583826.3,372.13,48.784175,11.4724424,-49.300000000000004,-54.38,,12.99,-0.185,-0.005,,,-0.016800000000000002,0.0224,1.0084,,-0.015600000000000001,0.016800000000000002,1.0088000000000001,-0.0011,-0.81,583826.3,372.13,48.784175,11.4724424,-49.300000000000004,-54.38,,12.99,-0.185,-0.005,,,-0.016800000000000002,0.0224,1.0084,,-0.015600000000000001,0.016800000000000002,1.0088000000000001,-0.0011,-0.81,583826.3,372.13,48.784175,11.4724424,-49.300000000000004,-54.38,,12.99,-0.185,-0.005,,,-0.016800000000000002,0.0224,1.0084,,-0.015600000000000001,0.016800000000000002,1.0088000000000001,-0.0011,-0.81,583826.3,372.13,48.784175,11.4724424,-49.300000000000004,-54.38,,12.99,-0.185,-0.005,,,-0.016800000000000002,0.0224,1.0084,,-0.015600000000000001,0.016800000000000002,1.0088000000000001,-0.0011,-0.81,583826.3,372.13,48.784175,11.4724424,-49.300000000000004,-54.38,,12.99,-0.185,-0.005,,,-0.016800000000000002,0.0224,1.0084,,-0.015600000000000001,0.016800000000000002,1.0088000000000001,-0.0011,-0.81,583826.3,372.13,48.784175,11.4724424,-49.300000000000004,-54.38,,12.99,-0.185,-0.005,,,-0.016800000000000002,0.0224,1.0084,,-0.015600000000000001,0.016800000000000002,1.0088000000000001,-0.0011,-0.81,583826.3,372.13,48.784175,11.4724424,-49.300000000000004,-54.38,,12.99,-0.185,-0.005,,0,0,0,0,,8,0,0,0,0,0,0,0,0,1,0,1,0,0,1,0,2,2,108,1,1,1,1,2,9"
"1716990952486696180,,167843,,316831613,2636204032,""""""adma"""""",""""""GBIN"""""",""""""0101"""""",0,""""""0000"""""",30357,0,10,2,16973824,17167,6764,4,1344300406,,0.0155,-0.0095,0.9332,,0.1554,0.15030000000000002,-0.8825000000000001,,0.16,0.15,-0.88,,0.17,0.15,-0.89,,0.015600000000000001,-0.009600000000000001,0.9332,,0.0152,-0.015600000000000001,0.9332,12.765,0.21,0.0,0.0,0,0,12.77,0.0,-0.0012000000000000001,-0.81,583819.24,0,0,0,0,0,0,0,0,10000,45.0,4367,8.5,48.7841752,11.4724405,-49.27,-54.53,0.007,0.007,0.015,,-6.890000000000001,-10.845,0.01,0.025,,0.044,0.045,0.088,309352450,2316,0,0.4,17,17,0,0,0,39.0,""""""0"""""",0.33,0.07,123.10000000000001,237.56,373.03000000000003,46.300000000000004,0,0,0.0,0.0,0.0,0.0,0.0,0.0,372.13,309352480,2316,18,48.7841743,11.472440899999999,-49.370000000000005,-54.49,,12.99,-0.185,-0.01,,-6.94,-10.985,0.01,655.0,655.0,404.01,,0.01,0.01,0.01,0.01,0.01,0.02,0.005,0.003,-0.001,0.001,100,100,100,0,0,316831613984.0,3.16831613984e+17,,,0.053200000000000004,-0.0408,1.036,,0.054400000000000004,-0.0468,1.0356,-0.0012000000000000001,-0.86,583820.65,371.75,48.784170499999995,11.4724297,-49.79,-55.32,,12.99,-0.195,-0.015,,,0.014400000000000001,-0.010400000000000001,0.9336000000000001,,0.0152,-0.015600000000000001,0.9332,-0.0012000000000000001,-0.81,583826.43,372.13,48.7841743,11.472440899999999,-49.370000000000005,-54.49,,12.99,-0.185,-0.01,,,0.014400000000000001,-0.010400000000000001,0.9336000000000001,,0.0152,-0.015600000000000001,0.9332,-0.0012000000000000001,-0.81,583826.43,372.13,48.7841743,11.472440899999999,-49.370000000000005,-54.49,,12.99,-0.185,-0.01,,,0.014400000000000001,-0.010400000000000001,0.9336000000000001,,0.0152,-0.015600000000000001,0.9332,-0.0012000000000000001,-0.81,583826.43,372.13,48.7841743,11.472440899999999,-49.370000000000005,-54.49,,12.99,-0.185,-0.01,,,0.014400000000000001,-0.010400000000000001,0.9336000000000001,,0.0152,-0.015600000000000001,0.9332,-0.0012000000000000001,-0.81,583826.43,372.13,48.7841743,11.472440899999999,-49.370000000000005,-54.49,,12.99,-0.185,-0.01,,,0.014400000000000001,-0.010400000000000001,0.9336000000000001,,0.0152,-0.015600000000000001,0.9332,-0.0012000000000000001,-0.81,583826.43,372.13,48.7841743,11.472440899999999,-49.370000000000005,-54.49,,12.99,-0.185,-0.01,,,0.014400000000000001,-0.010400000000000001,0.9336000000000001,,0.0152,-0.015600000000000001,0.9332,-0.0012000000000000001,-0.81,583826.43,372.13,48.7841743,11.472440899999999,-49.370000000000005,-54.49,,12.99,-0.185,-0.01,,,0.014400000000000001,-0.010400000000000001,0.9336000000000001,,0.0152,-0.015600000000000001,0.9332,-0.0012000000000000001,-0.81,583826.43,372.13,48.7841743,11.472440899999999,-49.370000000000005,-54.49,,12.99,-0.185,-0.01,,0,0,0,0,,8,0,0,0,0,0,0,0,0,1,0,1,0,0,1,0,2,0,109,1,1,1,1,2,9"
"1716990952530590534,,167844,,316831613,2646204032,""""""adma"""""",""""""GBIN"""""",""""""0101"""""",0,""""""0000"""""",30357,0,10,2,16973824,17167,6768,4,540428623,,0.0057,-0.0329,0.9607,,0.2446,0.0585,-0.7145,,0.24,0.06,-0.71,,0.25,0.05,-0.73,,0.0056,-0.0328,0.9608000000000001,,0.0044,-0.0388,0.9608000000000001,12.77,0.21,0.0,0.0,0,0,12.77,0.0,-0.001,-0.81,583819.37,0,0,0,0,0,0,0,0,10000,45.0,4367,8.5,48.7841752,11.4724405,-49.27,-54.53,0.007,0.007,0.015,,-6.890000000000001,-10.845,0.01,0.025,,0.044,0.045,0.088,309352450,2316,0,0.4,17,17,0,0,0,39.0,""""""0"""""",0.33,0.07,123.09,237.56,373.03000000000003,46.300000000000004,0,0,0.0,0.0,0.0,0.0,0.0,0.0,372.13,309352490,2316,18,48.7841737,11.472439399999999,-49.44,-54.6,,12.99,-0.185,-0.015,,-6.94,-10.985,0.015,655.0,655.0,571.37,,0.01,0.01,0.01,0.01,0.01,0.02,0.005,0.003,-0.001,0.001,100,100,100,0,0,316831613994.0,3.16831613994e+17,,,0.0128,0.0,0.9752000000000001,,0.014,-0.0056,0.9752000000000001,-0.001,-0.86,583820.78,371.75,48.784169899999995,11.4724282,-49.86,-55.43,,12.99,-0.195,-0.015,,,0.0036000000000000003,-0.0332,0.9608000000000001,,0.0044,-0.0388,0.9608000000000001,-0.001,-0.8200000000000001,583826.56,372.13,48.7841737,11.472439399999999,-49.44,-54.6,,12.99,-0.185,-0.015,,,0.0036000000000000003,-0.0332,0.9608000000000001,,0.0044,-0.0388,0.9608000000000001,-0.001,-0.8200000000000001,583826.56,372.13,48.7841737,11.472439399999999,-49.44,-54.6,,12.99,-0.185,-0.015,,,0.0036000000000000003,-0.0332,0.9608000000000001,,0.0044,-0.0388,0.9608000000000001,-0.001,-0.8200000000000001,583826.56,372.13,48.7841737,11.472439399999999,-49.44,-54.6,,12.99,-0.185,-0.015,,,0.0036000000000000003,-0.0332,0.9608000000000001,,0.0044,-0.0388,0.9608000000000001,-0.001,-0.8200000000000001,583826.56,372.13,48.7841737,11.472439399999999,-49.44,-54.6,,12.99,-0.185,-0.015,,,0.0036000000000000003,-0.0332,0.9608000000000001,,0.0044,-0.0388,0.9608000000000001,-0.001,-0.8200000000000001,583826.56,372.13,48.7841737,11.472439399999999,-49.44,-54.6,,12.99,-0.185,-0.015,,,0.0036000000000000003,-0.0332,0.9608000000000001,,0.0044,-0.0388,0.9608000000000001,-0.001,-0.8200000000000001,583826.56,372.13,48.7841737,11.472439399999999,-49.44,-54.6,,12.99,-0.185,-0.015,,,0.0036000000000000003,-0.0332,0.9608000000000001,,0.0044,-0.0388,0.9608000000000001,-0.001,-0.8200000000000001,583826.56,372.13,48.7841737,11.472439399999999,-49.44,-54.6,,12.99,-0.185,-0.015,,0,0,0,0,,8,0,0,0,0,0,0,0,0,1,0,1,0,0,1,0,2,0,110,1,1,1,1,2,9"
"1716990952530613295,,167845,,316831614,2656204032,""""""adma"""""",""""""GBIN"""""",""""""0101"""""",0,""""""0000"""""",30357,0,10,2,16973824,17167,6772,4,1650552389,,-0.060200000000000004,0.0036000000000000003,1.0172,,0.45520000000000005,0.26680000000000004,-0.8824000000000001,,0.46,0.27,-0.88,,0.47000000000000003,0.25,-0.89,,-0.060000000000000005,0.0036000000000000003,1.0172,,-0.0592,0.0004,1.0176,12.77,0.215,0.0,0.0,0,0,12.765,0.0,-0.0012000000000000001,-0.8200000000000001,583819.5,0,0,0,0,0,0,0,0,10000,45.0,4367,8.5,48.7841752,11.4724405,-49.27,-54.53,0.007,0.007,0.015,,-6.890000000000001,-10.845,0.01,0.025,,0.044,0.045,0.088,309352450,2316,0,0.4,17,17,0,0,0,39.0,""""""0"""""",0.34,0.07,123.08,237.56,373.03000000000003,46.300000000000004,0,0,0.0,0.0,0.0,0.0,0.0,0.0,372.13,309352500,2316,18,48.7841731,11.4724379,-49.51,-54.71,,12.985,-0.185,-0.015,,-6.9350000000000005,-10.98,0.015,655.0,655.0,655.0,,0.01,0.01,0.01,0.01,0.01,0.02,0.005,0.003,-0.001,0.001,100,100,100,0,0,316831614004.0,3.16831614004e+17,,,-0.07680000000000001,-0.006,0.9812000000000001,,-0.0756,-0.012,0.9812000000000001,-0.0012000000000000001,-0.86,583820.91,371.75,48.784169299999995,11.4724267,-49.93,-55.54,,12.985,-0.195,-0.02,,,-0.0604,0.0064,1.0176,,-0.0592,0.0004,1.0176,-0.0012000000000000001,-0.81,583826.6900000001,372.13,48.7841731,11.4724379,-49.51,-54.71,,12.985,-0.185,-0.015,,,-0.0604,0.0064,1.0176,,-0.0592,0.0004,1.0176,-0.0012000000000000001,-0.81,583826.6900000001,372.13,48.7841731,11.4724379,-49.51,-54.71,,12.985,-0.185,-0.015,,,-0.0604,0.0064,1.0176,,-0.0592,0.0004,1.0176,-0.0012000000000000001,-0.81,583826.6900000001,372.13,48.7841731,11.4724379,-49.51,-54.71,,12.985,-0.185,-0.015,,,-0.0604,0.0064,1.0176,,-0.0592,0.0004,1.0176,-0.0012000000000000001,-0.81,583826.6900000001,372.13,48.7841731,11.4724379,-49.51,-54.71,,12.985,-0.185,-0.015,,,-0.0604,0.0064,1.0176,,-0.0592,0.0004,1.0176,-0.0012000000000000001,-0.81,583826.6900000001,372.13,48.7841731,11.4724379,-49.51,-54.71,,12.985,-0.185,-0.015,,,-0.0604,0.0064,1.0176,,-0.0592,0.0004,1.0176,-0.0012000000000000001,-0.81,583826.6900000001,372.13,48.7841731,11.4724379,-49.51,-54.71,,12.985,-0.185,-0.015,,,-0.0604,0.0064,1.0176,,-0.0592,0.0004,1.0176,-0.0012000000000000001,-0.81,583826.6900000001,372.13,48.7841731,11.4724379,-49.51,-54.71,,12.985,-0.185,-0.015,,0,0,0,0,,8,0,0,0,0,0,0,0,0,1,0,1,0,0,1,0,2,0,111,1,1,1,1,2,9"
"1716990952530661403,,167846,,316831614,2666204032,""""""adma"""""",""""""GBIN"""""",""""""0101"""""",0,""""""0000"""""",30357,0,10,2,16973824,17167,6776,4,543450476,,-0.0129,-0.0058000000000000005,0.9941000000000001,,0.6765,-0.2132,-0.7817000000000001,,0.68,-0.21,-0.78,,0.67,-0.24,-0.8,,-0.0128,-0.006,0.994,,-0.0128,-0.0112,0.9944000000000001,12.765,0.215,0.0,0.0,0,0,12.765,0.0,-0.0011,-0.81,583819.63,0,0,0,0,0,0,0,0,10000,45.0,4367,8.5,48.7841752,11.4724405,-49.27,-54.53,0.007,0.007,0.015,,-6.890000000000001,-10.845,0.01,0.025,,0.044,0.045,0.088,309352450,2316,31,0.4,17,17,0,0,0,39.0,""""""0"""""",0.35000000000000003,0.07,123.07000000000001,237.56,373.03000000000003,46.300000000000004,0,0,0.0,0.0,0.0,0.0,0.0,0.0,372.13,309352510,2316,18,48.7841725,11.472436499999999,-49.58,-54.82,,12.985,-0.18,-0.015,,-6.9350000000000005,-10.98,0.015,655.0,655.0,655.0,,0.01,0.01,0.01,0.01,0.01,0.02,0.005,0.0035,-0.001,0.0005,100,100,100,0,0,316831614014.0,3.16831614014e+17,,,0.0212,0.024800000000000003,1.0712000000000002,,0.0224,0.0184,1.0716,-0.0011,-0.84,583821.04,371.75,48.784168699999995,11.4724252,-50.0,-55.65,,12.985,-0.19,-0.01,,,-0.014,-0.005200000000000001,0.9944000000000001,,-0.0128,-0.0112,0.9944000000000001,-0.0011,-0.8,583826.8200000001,372.13,48.7841725,11.472436499999999,-49.58,-54.82,,12.985,-0.18,-0.015,,,-0.014,-0.005200000000000001,0.9944000000000001,,-0.0128,-0.0112,0.9944000000000001,-0.0011,-0.8,583826.8200000001,372.13,48.7841725,11.472436499999999,-49.58,-54.82,,12.985,-0.18,-0.015,,,-0.014,-0.005200000000000001,0.9944000000000001,,-0.0128,-0.0112,0.9944000000000001,-0.0011,-0.8,583826.8200000001,372.13,48.7841725,11.472436499999999,-49.58,-54.82,,12.985,-0.18,-0.015,,,-0.014,-0.005200000000000001,0.9944000000000001,,-0.0128,-0.0112,0.9944000000000001,-0.0011,-0.8,583826.8200000001,372.13,48.7841725,11.472436499999999,-49.58,-54.82,,12.985,-0.18,-0.015,,,-0.014,-0.005200000000000001,0.9944000000000001,,-0.0128,-0.0112,0.9944000000000001,-0.0011,-0.8,583826.8200000001,372.13,48.7841725,11.472436499999999,-49.58,-54.82,,12.985,-0.18,-0.015,,,-0.014,-0.005200000000000001,0.9944000000000001,,-0.0128,-0.0112,0.9944000000000001,-0.0011,-0.8,583826.8200000001,372.13,48.7841725,11.472436499999999,-49.58,-54.82,,12.985,-0.18,-0.015,,,-0.014,-0.005200000000000001,0.9944000000000001,,-0.0128,-0.0112,0.9944000000000001,-0.0011,-0.8,583826.8200000001,372.13,48.7841725,11.472436499999999,-49.58,-54.82,,12.985,-0.18,-0.015,,0,0,0,0,,8,0,0,0,1,0,0,0,0,1,0,1,0,0,1,0,2,0,112,1,1,1,1,2,9"
"1716990952530682140,,167847,,316831614,2676204032,""""""adma"""""",""""""GBIN"""""",""""""0101"""""",0,""""""0000"""""",30357,0,10,2,16973824,17167,6780,4,221257789,,-0.0019,-0.0044,1.0266,,-0.1699,-0.49760000000000004,-0.8744000000000001,,-0.17,-0.5,-0.87,,-0.19,-0.48,-0.89,,-0.002,-0.0044,1.0264,,-0.0016,-0.010400000000000001,1.0268000000000002,12.77,0.215,0.0,0.0,0,0,12.775,0.0,-0.0012000000000000001,-0.8,583819.76,0,0,0,0,0,0,0,0,10000,45.0,4367,8.5,48.7841721,11.472432999999999,-49.61,-55.07,0.007,0.008,0.015,,-6.845,-10.905,-0.055,0.025,,0.045,0.046,0.09,309352500,2316,0,0.5,17,17,0,0,1,39.0,""""""0"""""",0.34,0.06,123.06,237.89000000000001,373.03000000000003,46.300000000000004,0,0,0.0,0.0,0.0,0.0,0.0,0.0,372.14,309352520,2316,18,48.7841719,11.472434999999999,-49.64,-54.93,,12.98,-0.18,-0.01,,-6.93,-10.98,0.01,0.61,0.47000000000000003,0.22,,0.01,0.01,0.01,0.01,0.01,0.02,0.005,0.003,-0.001,0.001,100,100,100,0,0,316831614024.0,3.16831614024e+17,,,0.012,-0.078,1.082,,0.0132,-0.0844,1.0816000000000001,-0.0012000000000000001,-0.87,583821.17,371.75,48.784168099999995,11.4724238,-50.06,-55.75,,12.985,-0.195,-0.005,,,-0.0028,-0.0044,1.0268000000000002,,-0.0016,-0.010400000000000001,1.0268000000000002,-0.0012000000000000001,-0.8,583826.9500000001,372.14,48.7841719,11.472434999999999,-49.64,-54.93,,12.98,-0.18,-0.01,,,-0.0028,-0.0044,1.0268000000000002,,-0.0016,-0.010400000000000001,1.0268000000000002,-0.0012000000000000001,-0.8,583826.9500000001,372.14,48.7841719,11.472434999999999,-49.64,-54.93,,12.98,-0.18,-0.01,,,-0.0028,-0.0044,1.0268000000000002,,-0.0016,-0.010400000000000001,1.0268000000000002,-0.0012000000000000001,-0.8,583826.9500000001,372.14,48.7841719,11.472434999999999,-49.64,-54.93,,12.98,-0.18,-0.01,,,-0.0028,-0.0044,1.0268000000000002,,-0.0016,-0.010400000000000001,1.0268000000000002,-0.0012000000000000001,-0.8,583826.9500000001,372.14,48.7841719,11.472434999999999,-49.64,-54.93,,12.98,-0.18,-0.01,,,-0.0028,-0.0044,1.0268000000000002,,-0.0016,-0.010400000000000001,1.0268000000000002,-0.0012000000000000001,-0.8,583826.9500000001,372.14,48.7841719,11.472434999999999,-49.64,-54.93,,12.98,-0.18,-0.01,,,-0.0028,-0.0044,1.0268000000000002,,-0.0016,-0.010400000000000001,1.0268000000000002,-0.0012000000000000001,-0.8,583826.9500000001,372.14,48.7841719,11.472434999999999,-49.64,-54.93,,12.98,-0.18,-0.01,,,-0.0028,-0.0044,1.0268000000000002,,-0.0016,-0.010400000000000001,1.0268000000000002,-0.0012000000000000001,-0.8,583826.9500000001,372.14,48.7841719,11.472434999999999,-49.64,-54.93,,12.98,-0.18,-0.01,,0,0,0,0,,8,0,0,0,0,0,0,0,0,1,0,1,0,0,1,0,2,2,113,1,1,1,1,2,9"
"1716990952533624003,,167848,,316831614,2686204032,""""""adma"""""",""""""GBIN"""""",""""""0101"""""",0,""""""0000"""""",30357,0,10,2,16973824,17167,6784,4,1953845002,,0.005200000000000001,-0.0434,1.0006000000000002,,0.2751,0.5119,-0.7601,,0.28,0.51,-0.76,,0.31,0.5,-0.77,,0.005200000000000001,-0.0432,1.0004,,0.0036000000000000003,-0.049600000000000005,1.0004,12.765,0.22,0.0,0.0,0,0,12.77,0.0,-0.001,-0.8,583819.89,0,0,0,0,0,0,0,0,10000,45.0,4367,8.5,48.7841721,11.472432999999999,-49.61,-55.07,0.007,0.008,0.015,,-6.845,-10.905,-0.055,0.025,,0.045,0.046,0.09,309352500,2316,0,0.5,17,17,0,0,0,39.0,""""""0"""""",0.35000000000000003,0.07,123.06,237.89000000000001,373.03000000000003,46.300000000000004,0,0,0.0,0.0,0.0,0.0,0.0,0.0,372.14,309352530,2316,18,48.7841713,11.4724335,-49.71,-55.04,,12.985,-0.185,-0.01,,-6.925,-10.98,0.01,655.0,655.0,404.03000000000003,,0.01,0.01,0.01,0.01,0.01,0.02,0.005,0.003,-0.001,0.001,100,100,100,0,0,316831614034.0,3.16831614034e+17,,,-0.062400000000000004,0.0088,0.8300000000000001,,-0.0616,0.0036000000000000003,0.8300000000000001,-0.001,-0.86,583821.3,371.75,48.784167499999995,11.4724223,-50.13,-55.86,,12.98,-0.195,-0.02,,,0.0024000000000000002,-0.0436,1.0008000000000001,,0.0036000000000000003,-0.049600000000000005,1.0004,-0.001,-0.8200000000000001,583827.08,372.14,48.7841713,11.4724335,-49.71,-55.04,,12.985,-0.185,-0.01,,,0.0024000000000000002,-0.0436,1.0008000000000001,,0.0036000000000000003,-0.049600000000000005,1.0004,-0.001,-0.8200000000000001,583827.08,372.14,48.7841713,11.4724335,-49.71,-55.04,,12.985,-0.185,-0.01,,,0.0024000000000000002,-0.0436,1.0008000000000001,,0.0036000000000000003,-0.049600000000000005,1.0004,-0.001,-0.8200000000000001,583827.08,372.14,48.7841713,11.4724335,-49.71,-55.04,,12.985,-0.185,-0.01,,,0.0024000000000000002,-0.0436,1.0008000000000001,,0.0036000000000000003,-0.049600000000000005,1.0004,-0.001,-0.8200000000000001,583827.08,372.14,48.7841713,11.4724335,-49.71,-55.04,,12.985,-0.185,-0.01,,,0.0024000000000000002,-0.0436,1.0008000000000001,,0.0036000000000000003,-0.049600000000000005,1.0004,-0.001,-0.8200000000000001,583827.08,372.14,48.7841713,11.4724335,-49.71,-55.04,,12.985,-0.185,-0.01,,,0.0024000000000000002,-0.0436,1.0008000000000001,,0.0036000000000000003,-0.049600000000000005,1.0004,-0.001,-0.8200000000000001,583827.08,372.14,48.7841713,11.4724335,-49.71,-55.04,,12.985,-0.185,-0.01,,,0.0024000000000000002,-0.0436,1.0008000000000001,,0.0036000000000000003,-0.049600000000000005,1.0004,-0.001,-0.8200000000000001,583827.08,372.14,48.7841713,11.4724335,-49.71,-55.04,,12.985,-0.185,-0.01,,0,0,0,0,,8,0,0,0,0,0,0,0,0,1,0,1,0,0,1,0,2,0,114,1,1,1,1,2,9"
"1716990952543710905,,167849,,316831614,2696204032,""""""adma"""""",""""""GBIN"""""",""""""0101"""""",0,""""""0000"""""",30357,0,10,2,16973824,17167,6788,4,544503152,,-0.0378,-0.002,0.9838,,0.38020000000000004,-0.3799,-0.7856000000000001,,0.38,-0.38,-0.79,,0.37,-0.39,-0.8,,-0.0376,-0.002,0.9840000000000001,,-0.0376,-0.0064,0.9840000000000001,12.77,0.215,0.0,0.0,0,0,12.77,0.0,-0.0011,-0.8200000000000001,583820.02,0,0,0,0,0,0,0,0,10000,45.0,4367,8.5,48.7841721,11.472432999999999,-49.61,-55.07,0.007,0.008,0.015,,-6.845,-10.905,-0.055,0.025,,0.045,0.046,0.09,309352500,2316,0,0.5,17,17,0,0,0,39.0,""""""0"""""",0.35000000000000003,0.06,123.05,237.89000000000001,373.03000000000003,46.300000000000004,0,0,0.0,0.0,0.0,0.0,0.0,0.0,372.14,309352540,2316,18,48.784170599999996,11.472432,-49.78,-55.15,,12.98,-0.185,-0.01,,-6.925,-10.98,0.01,655.0,655.0,571.39,,0.01,0.01,0.01,0.01,0.01,0.02,0.005,0.003,-0.001,0.001,100,100,100,0,0,316831614044.0,3.16831614044e+17,,,0.022000000000000002,-0.0004,1.1300000000000001,,0.023200000000000002,-0.007200000000000001,1.1300000000000001,-0.0011,-0.86,583821.43,371.75,48.7841668,11.4724208,-50.2,-55.97,,12.98,-0.195,-0.005,,,-0.038400000000000004,-0.0004,0.9840000000000001,,-0.0376,-0.0064,0.9840000000000001,-0.0011,-0.81,583827.21,372.14,48.784170599999996,11.472432,-49.78,-55.15,,12.98,-0.185,-0.01,,,-0.038400000000000004,-0.0004,0.9840000000000001,,-0.0376,-0.0064,0.9840000000000001,-0.0011,-0.81,583827.21,372.14,48.784170599999996,11.472432,-49.78,-55.15,,12.98,-0.185,-0.01,,,-0.038400000000000004,-0.0004,0.9840000000000001,,-0.0376,-0.0064,0.9840000000000001,-0.0011,-0.81,583827.21,372.14,48.784170599999996,11.472432,-49.78,-55.15,,12.98,-0.185,-0.01,,,-0.038400000000000004,-0.0004,0.9840000000000001,,-0.0376,-0.0064,0.9840000000000001,-0.0011,-0.81,583827.21,372.14,48.784170599999996,11.472432,-49.78,-55.15,,12.98,-0.185,-0.01,,,-0.038400000000000004,-0.0004,0.9840000000000001,,-0.0376,-0.0064,0.9840000000000001,-0.0011,-0.81,583827.21,372.14,48.784170599999996,11.472432,-49.78,-55.15,,12.98,-0.185,-0.01,,,-0.038400000000000004,-0.0004,0.9840000000000001,,-0.0376,-0.0064,0.9840000000000001,-0.0011,-0.81,583827.21,372.14,48.784170599999996,11.472432,-49.78,-55.15,,12.98,-0.185,-0.01,,,-0.038400000000000004,-0.0004,0.9840000000000001,,-0.0376,-0.0064,0.9840000000000001,-0.0011,-0.81,583827.21,372.14,48.784170599999996,11.472432,-49.78,-55.15,,12.98,-0.185,-0.01,,0,0,0,0,,8,0,0,0,0,0,0,0,0,1,0,1,0,0,1,0,2,0,115,1,1,1,1,2,9"
"1716990952590665664,,167850,,316831614,2706204032,""""""adma"""""",""""""GBIN"""""",""""""0101"""""",0,""""""0000"""""",30357,0,10,2,16973824,17167,6792,4,1226860143,,0.014400000000000001,0.0123,1.0035,,0.5774,-0.49920000000000003,-0.8992,,0.58,-0.5,-0.9,,0.56,-0.52,-0.92,,0.014400000000000001,0.012400000000000001,1.0036,,0.0152,0.005200000000000001,1.004,12.775,0.215,0.0,0.0,0,0,12.775,0.0,-0.0012000000000000001,-0.81,583820.15,0,0,0,0,0,0,0,0,10000,45.0,4367,8.5,48.7841721,11.472432999999999,-49.61,-55.07,0.007,0.008,0.015,,-6.845,-10.905,-0.055,0.025,,0.045,0.046,0.09,309352500,2316,0,0.5,17,17,0,0,0,39.0,""""""0"""""",0.36,0.06,123.04,237.89000000000001,373.03000000000003,46.300000000000004,0,0,0.0,0.0,0.0,0.0,0.0,0.0,372.14,309352550,2316,18,48.784169999999996,11.4724305,-49.85,-55.26,,12.98,-0.18,-0.01,,-6.925,-10.98,0.01,655.0,655.0,655.0,,0.01,0.01,0.01,0.01,0.01,0.02,0.005,0.003,-0.001,0.001,100,100,100,0,0,316831614054.0,3.16831614054e+17,,,0.0212,0.006,1.0216,,0.022000000000000002,-0.0004,1.0216,-0.0012000000000000001,-0.85,583821.55,371.75,48.784166199999994,11.4724193,-50.27,-56.08,,12.985,-0.19,-0.005,,,0.014400000000000001,0.011600000000000001,1.0036,,0.0152,0.005200000000000001,1.004,-0.0012000000000000001,-0.8,583827.34,372.14,48.784169999999996,11.4724305,-49.85,-55.26,,12.98,-0.18,-0.01,,,0.014400000000000001,0.011600000000000001,1.0036,,0.0152,0.005200000000000001,1.004,-0.0012000000000000001,-0.8,583827.34,372.14,48.784169999999996,11.4724305,-49.85,-55.26,,12.98,-0.18,-0.01,,,0.014400000000000001,0.011600000000000001,1.0036,,0.0152,0.005200000000000001,1.004,-0.0012000000000000001,-0.8,583827.34,372.14,48.784169999999996,11.4724305,-49.85,-55.26,,12.98,-0.18,-0.01,,,0.014400000000000001,0.011600000000000001,1.0036,,0.0152,0.005200000000000001,1.004,-0.0012000000000000001,-0.8,583827.34,372.14,48.784169999999996,11.4724305,-49.85,-55.26,,12.98,-0.18,-0.01,,,0.014400000000000001,0.011600000000000001,1.0036,,0.0152,0.005200000000000001,1.004,-0.0012000000000000001,-0.8,583827.34,372.14,48.784169999999996,11.4724305,-49.85,-55.26,,12.98,-0.18,-0.01,,,0.014400000000000001,0.011600000000000001,1.0036,,0.0152,0.005200000000000001,1.004,-0.0012000000000000001,-0.8,583827.34,372.14,48.784169999999996,11.4724305,-49.85,-55.26,,12.98,-0.18,-0.01,,,0.014400000000000001,0.011600000000000001,1.0036,,0.0152,0.005200000000000001,1.004,-0.0012000000000000001,-0.8,583827.34,372.14,48.784169999999996,11.4724305,-49.85,-55.26,,12.98,-0.18,-0.01,,0,0,0,0,,8,0,0,0,0,0,0,0,0,1,0,1,0,0,1,0,2,0,116,1,1,1,1,2,9"
"1716990952590680662,,167851,,316831614,2716204032,""""""adma"""""",""""""GBIN"""""",""""""0101"""""",0,""""""0000"""""",30357,0,10,2,16973824,17167,6796,4,1344295758,,-0.0083,0.0043,1.0150000000000001,,-0.1709,-0.5015000000000001,-0.8437,,-0.17,-0.5,-0.84,,-0.19,-0.49,-0.86,,-0.008400000000000001,0.0044,1.0152,,-0.0076,-0.0016,1.0152,12.775,0.215,0.0,0.0,0,0,12.775,0.0,-0.0012000000000000001,-0.8,583820.28,0,0,0,0,0,0,0,0,10000,45.0,4367,8.5,48.7841721,11.472432999999999,-49.61,-55.07,0.007,0.008,0.015,,-6.845,-10.905,-0.055,0.025,,0.045,0.046,0.09,309352500,2316,31,0.5,17,17,0,0,0,39.0,""""""0"""""",0.35000000000000003,0.05,123.03,237.89000000000001,373.03000000000003,46.300000000000004,0,0,0.0,0.0,0.0,0.0,0.0,0.0,372.14,309352560,2316,18,48.784169399999996,11.472429,-49.92,-55.370000000000005,,12.98,-0.18,-0.01,,-6.925,-10.98,0.01,655.0,655.0,655.0,,0.01,0.01,0.01,0.01,0.01,0.02,0.005,0.003,-0.001,0.001,100,100,100,0,0,316831614064.0,3.16831614064e+17,,,-0.01,-0.0368,1.0228000000000002,,-0.0092,-0.0432,1.0228000000000002,-0.0012000000000000001,-0.86,583821.68,371.75,48.784165599999994,11.472417799999999,-50.34,-56.19,,12.98,-0.195,0.0,,,-0.0088,0.0048000000000000004,1.0152,,-0.0076,-0.0016,1.0152,-0.0012000000000000001,-0.79,583827.47,372.14,48.784169399999996,11.472429,-49.92,-55.370000000000005,,12.98,-0.18,-0.01,,,-0.0088,0.0048000000000000004,1.0152,,-0.0076,-0.0016,1.0152,-0.0012000000000000001,-0.79,583827.47,372.14,48.784169399999996,11.472429,-49.92,-55.370000000000005,,12.98,-0.18,-0.01,,,-0.0088,0.0048000000000000004,1.0152,,-0.0076,-0.0016,1.0152,-0.0012000000000000001,-0.79,583827.47,372.14,48.784169399999996,11.472429,-49.92,-55.370000000000005,,12.98,-0.18,-0.01,,,-0.0088,0.0048000000000000004,1.0152,,-0.0076,-0.0016,1.0152,-0.0012000000000000001,-0.79,583827.47,372.14,48.784169399999996,11.472429,-49.92,-55.370000000000005,,12.98,-0.18,-0.01,,,-0.0088,0.0048000000000000004,1.0152,,-0.0076,-0.0016,1.0152,-0.0012000000000000001,-0.79,583827.47,372.14,48.784169399999996,11.472429,-49.92,-55.370000000000005,,12.98,-0.18,-0.01,,,-0.0088,0.0048000000000000004,1.0152,,-0.0076,-0.0016,1.0152,-0.0012000000000000001,-0.79,583827.47,372.14,48.784169399999996,11.472429,-49.92,-55.370000000000005,,12.98,-0.18,-0.01,,,-0.0088,0.0048000000000000004,1.0152,,-0.0076,-0.0016,1.0152,-0.0012000000000000001,-0.79,583827.47,372.14,48.784169399999996,11.472429,-49.92,-55.370000000000005,,12.98,-0.18,-0.01,,0,0,0,0,,8,0,0,0,1,0,0,0,0,1,0,1,0,0,1,0,2,0,117,1,1,1,1,2,9"
"1716990952590720466,,167852,,316831614,2726204032,""""""adma"""""",""""""GBIN"""""",""""""0101"""""",0,""""""0000"""""",30357,0,10,2,16973824,17167,6800,4,1953067887,,0.0,-0.0193,1.0198,,0.0198,-0.06380000000000001,-0.8532000000000001,,0.02,-0.06,-0.85,,0.02,-0.06,-0.87,,0.0,-0.019200000000000002,1.0196,,-0.0008,-0.0256,1.02,12.77,0.21,0.0,0.0,0,0,12.77,0.0,-0.0012000000000000001,-0.79,583820.41,0,0,0,0,0,0,0,0,10000,45.0,4367,8.4,48.7841691,11.472425699999999,-49.95,-55.61,0.008,0.008,0.015,,-6.83,-10.875,0.035,0.025,,0.047,0.047,0.093,309352550,2316,0,0.6000000000000001,17,17,0,0,1,39.0,""""""0"""""",0.35000000000000003,0.05,123.02,237.86,373.03000000000003,46.300000000000004,0,0,0.0,0.0,0.0,0.0,0.0,0.0,372.13,309352570,2316,18,48.784168799999996,11.4724276,-49.980000000000004,-55.47,,12.975,-0.18,-0.01,,-6.92,-10.98,0.01,0.87,0.47000000000000003,0.22,,0.01,0.01,0.01,0.01,0.01,0.02,0.005,0.003,-0.001,0.001,100,100,100,0,0,316831614074.0,3.16831614074e+17,,,-0.0308,-0.0064,0.9460000000000001,,-0.030000000000000002,-0.012400000000000001,0.9460000000000001,-0.0012000000000000001,-0.86,583821.81,371.75,48.784164999999994,11.4724164,-50.4,-56.300000000000004,,12.975,-0.195,-0.01,,,-0.0016,-0.019200000000000002,1.02,,-0.0008,-0.0256,1.02,-0.0012000000000000001,-0.8,583827.6,372.13,48.784168799999996,11.4724276,-49.980000000000004,-55.47,,12.975,-0.18,-0.01,,,-0.0016,-0.019200000000000002,1.02,,-0.0008,-0.0256,1.02,-0.0012000000000000001,-0.8,583827.6,372.13,48.784168799999996,11.4724276,-49.980000000000004,-55.47,,12.975,-0.18,-0.01,,,-0.0016,-0.019200000000000002,1.02,,-0.0008,-0.0256,1.02,-0.0012000000000000001,-0.8,583827.6,372.13,48.784168799999996,11.4724276,-49.980000000000004,-55.47,,12.975,-0.18,-0.01,,,-0.0016,-0.019200000000000002,1.02,,-0.0008,-0.0256,1.02,-0.0012000000000000001,-0.8,583827.6,372.13,48.784168799999996,11.4724276,-49.980000000000004,-55.47,,12.975,-0.18,-0.01,,,-0.0016,-0.019200000000000002,1.02,,-0.0008,-0.0256,1.02,-0.0012000000000000001,-0.8,583827.6,372.13,48.784168799999996,11.4724276,-49.980000000000004,-55.47,,12.975,-0.18,-0.01,,,-0.0016,-0.019200000000000002,1.02,,-0.0008,-0.0256,1.02,-0.0012000000000000001,-0.8,583827.6,372.13,48.784168799999996,11.4724276,-49.980000000000004,-55.47,,12.975,-0.18,-0.01,,,-0.0016,-0.019200000000000002,1.02,,-0.0008,-0.0256,1.02,-0.0012000000000000001,-0.8,583827.6,372.13,48.784168799999996,11.4724276,-49.980000000000004,-55.47,,12.975,-0.18,-0.01,,0,0,0,0,,8,0,0,0,0,0,0,0,0,1,0,1,0,0,1,0,2,2,118,1,1,1,1,2,9"
"1716990952590742868,,167853,,316831614,2736204032,""""""adma"""""",""""""GBIN"""""",""""""0101"""""",0,""""""0000"""""",30357,0,10,2,16973824,17167,6804,4,544108393,,-0.0162,-0.07440000000000001,1.0321,,0.0011,-0.1396,-0.611,,0.0,-0.14,-0.61,,0.0,-0.13,-0.62,,-0.016,-0.07440000000000001,1.032,,-0.0196,-0.08,1.032,12.775,0.215,0.0,0.0,0,0,12.77,0.0,-0.0008,-0.8,583820.54,0,0,0,0,0,0,0,0,10000,45.0,4367,8.4,48.7841691,11.472425699999999,-49.95,-55.61,0.008,0.008,0.015,,-6.83,-10.875,0.035,0.025,,0.047,0.047,0.093,309352550,2316,0,0.6000000000000001,17,17,0,0,0,39.0,""""""0"""""",0.35000000000000003,0.05,123.02,237.86,373.03000000000003,46.300000000000004,0,0,0.0,0.0,0.0,0.0,0.0,0.0,372.13,309352580,2316,18,48.784168199999996,11.4724261,-50.050000000000004,-55.58,,12.975,-0.185,-0.005,,-6.915,-10.98,0.005,655.0,655.0,404.05,,0.01,0.01,0.01,0.01,0.01,0.02,0.005,0.003,-0.001,0.001,100,100,100,0,0,316831614084.0,3.16831614084e+17,,,-0.0112,-0.0352,1.0452000000000001,,-0.010400000000000001,-0.041600000000000005,1.0448,-0.0008,-0.87,583821.9400000001,371.75,48.784164399999995,11.472414899999999,-50.47,-56.410000000000004,,12.975,-0.195,-0.005,,,-0.0204,-0.0736,1.0324,,-0.0196,-0.08,1.032,-0.0008,-0.8300000000000001,583827.73,372.13,48.784168199999996,11.4724261,-50.050000000000004,-55.58,,12.975,-0.185,-0.005,,,-0.0204,-0.0736,1.0324,,-0.0196,-0.08,1.032,-0.0008,-0.8300000000000001,583827.73,372.13,48.784168199999996,11.4724261,-50.050000000000004,-55.58,,12.975,-0.185,-0.005,,,-0.0204,-0.0736,1.0324,,-0.0196,-0.08,1.032,-0.0008,-0.8300000000000001,583827.73,372.13,48.784168199999996,11.4724261,-50.050000000000004,-55.58,,12.975,-0.185,-0.005,,,-0.0204,-0.0736,1.0324,,-0.0196,-0.08,1.032,-0.0008,-0.8300000000000001,583827.73,372.13,48.784168199999996,11.4724261,-50.050000000000004,-55.58,,12.975,-0.185,-0.005,,,-0.0204,-0.0736,1.0324,,-0.0196,-0.08,1.032,-0.0008,-0.8300000000000001,583827.73,372.13,48.784168199999996,11.4724261,-50.050000000000004,-55.58,,12.975,-0.185,-0.005,,,-0.0204,-0.0736,1.0324,,-0.0196,-0.08,1.032,-0.0008,-0.8300000000000001,583827.73,372.13,48.784168199999996,11.4724261,-50.050000000000004,-55.58,,12.975,-0.185,-0.005,,,-0.0204,-0.0736,1.0324,,-0.0196,-0.08,1.032,-0.0008,-0.8300000000000001,583827.73,372.13,48.784168199999996,11.4724261,-50.050000000000004,-55.58,,12.975,-0.185,-0.005,,0,0,0,0,,8,0,0,0,0,0,0,0,0,1,0,1,0,0,1,0,2,0,119,1,1,1,1,2,9"
"1716990952634599024,,167854,,316831614,2746204032,""""""adma"""""",""""""GBIN"""""",""""""0101"""""",0,""""""0000"""""",30357,0,10,2,16973824,17167,6808,4,1869832769,,-0.013900000000000001,-0.0006000000000000001,0.9644,,-0.2604,-0.0264,-0.5955,,-0.26,-0.03,-0.6,,-0.26,-0.01,-0.61,,-0.014,-0.0004,0.9644,,-0.013600000000000001,-0.006,0.9648,12.77,0.21,0.0,0.0,0,0,12.77,0.0,-0.0008,-0.8300000000000001,583820.67,0,0,0,0,0,0,0,0,10000,45.0,4367,8.4,48.7841691,11.472425699999999,-49.95,-55.61,0.008,0.008,0.015,,-6.83,-10.875,0.035,0.025,,0.047,0.047,0.093,309352550,2316,0,0.6000000000000001,17,17,0,0,0,39.0,""""""0"""""",0.35000000000000003,0.05,123.01,237.86,373.03000000000003,46.300000000000004,0,0,0.0,0.0,0.0,0.0,0.0,0.0,372.13,309352590,2316,18,48.784167599999996,11.4724246,-50.120000000000005,-55.69,,12.975,-0.185,-0.01,,-6.91,-10.98,0.01,655.0,655.0,571.42,,0.01,0.01,0.01,0.01,0.01,0.02,0.005,0.003,-0.001,0.0005,100,100,100,0,0,316831614094.0,3.16831614094e+17,,,-0.0228,-0.0148,0.9484,,-0.022000000000000002,-0.020800000000000003,0.9484,-0.0008,-0.87,583822.0700000001,371.75,48.784163799999995,11.472413399999999,-50.54,-56.52,,12.975,-0.2,-0.01,,,-0.014400000000000001,0.0,0.9648,,-0.013600000000000001,-0.006,0.9648,-0.0008,-0.8200000000000001,583827.86,372.13,48.784167599999996,11.4724246,-50.120000000000005,-55.69,,12.975,-0.185,-0.01,,,-0.014400000000000001,0.0,0.9648,,-0.013600000000000001,-0.006,0.9648,-0.0008,-0.8200000000000001,583827.86,372.13,48.784167599999996,11.4724246,-50.120000000000005,-55.69,,12.975,-0.185,-0.01,,,-0.014400000000000001,0.0,0.9648,,-0.013600000000000001,-0.006,0.9648,-0.0008,-0.8200000000000001,583827.86,372.13,48.784167599999996,11.4724246,-50.120000000000005,-55.69,,12.975,-0.185,-0.01,,,-0.014400000000000001,0.0,0.9648,,-0.013600000000000001,-0.006,0.9648,-0.0008,-0.8200000000000001,583827.86,372.13,48.784167599999996,11.4724246,-50.120000000000005,-55.69,,12.975,-0.185,-0.01,,,-0.014400000000000001,0.0,0.9648,,-0.013600000000000001,-0.006,0.9648,-0.0008,-0.8200000000000001,583827.86,372.13,48.784167599999996,11.4724246,-50.120000000000005,-55.69,,12.975,-0.185,-0.01,,,-0.014400000000000001,0.0,0.9648,,-0.013600000000000001,-0.006,0.9648,-0.0008,-0.8200000000000001,583827.86,372.13,48.784167599999996,11.4724246,-50.120000000000005,-55.69,,12.975,-0.185,-0.01,,,-0.014400000000000001,0.0,0.9648,,-0.013600000000000001,-0.006,0.9648,-0.0008,-0.8200000000000001,583827.86,372.13,48.784167599999996,11.4724246,-50.120000000000005,-55.69,,12.975,-0.185,-0.01,,0,0,0,0,,8,0,0,0,0,0,0,0,0,1,0,1,0,0,1,0,2,0,120,1,1,1,1,2,9"
"1716990952634633345,,167855,,316831614,2756204032,""""""adma"""""",""""""GBIN"""""",""""""0101"""""",0,""""""0000"""""",30357,0,10,2,16973824,17167,6812,4,1702131052,,0.0112,-0.0014,0.9671000000000001,,0.1226,-0.8651000000000001,-0.6543,,0.12,-0.87,-0.65,,0.09,-0.86,-0.67,,0.0112,-0.0012000000000000001,0.9672000000000001,,0.0112,-0.008,0.9672000000000001,12.77,0.21,0.0,0.0,0,0,12.77,0.0,-0.0009000000000000001,-0.8200000000000001,583820.8,0,0,0,0,0,0,0,0,10000,45.0,4367,8.4,48.7841691,11.472425699999999,-49.95,-55.61,0.008,0.008,0.015,,-6.83,-10.875,0.035,0.025,,0.047,0.047,0.093,309352550,2316,0,0.6000000000000001,17,17,0,0,0,39.0,""""""0"""""",0.35000000000000003,0.04,123.0,237.86,373.03000000000003,46.300000000000004,0,0,0.0,0.0,0.0,0.0,0.0,0.0,372.13,309352600,2316,18,48.784166899999995,11.4724231,-50.19,-55.800000000000004,,12.975,-0.185,-0.01,,-6.91,-10.98,0.01,655.0,655.0,655.0,,0.01,0.01,0.01,0.01,0.01,0.02,0.005,0.003,-0.001,0.001,100,100,100,0,0,316831614104.0,3.16831614104e+17,,,0.06760000000000001,0.011600000000000001,1.102,,0.0684,0.0048000000000000004,1.102,-0.0009000000000000001,-0.86,583822.2000000001,371.75,48.784163199999995,11.472411899999999,-50.61,-56.63,,12.98,-0.195,0.0,,,0.010400000000000001,-0.002,0.9672000000000001,,0.0112,-0.008,0.9672000000000001,-0.0009000000000000001,-0.8200000000000001,583827.99,372.13,48.784166899999995,11.4724231,-50.19,-55.800000000000004,,12.975,-0.185,-0.01,,,0.010400000000000001,-0.002,0.9672000000000001,,0.0112,-0.008,0.9672000000000001,-0.0009000000000000001,-0.8200000000000001,583827.99,372.13,48.784166899999995,11.4724231,-50.19,-55.800000000000004,,12.975,-0.185,-0.01,,,0.010400000000000001,-0.002,0.9672000000000001,,0.0112,-0.008,0.9672000000000001,-0.0009000000000000001,-0.8200000000000001,583827.99,372.13,48.784166899999995,11.4724231,-50.19,-55.800000000000004,,12.975,-0.185,-0.01,,,0.010400000000000001,-0.002,0.9672000000000001,,0.0112,-0.008,0.9672000000000001,-0.0009000000000000001,-0.8200000000000001,583827.99,372.13,48.784166899999995,11.4724231,-50.19,-55.800000000000004,,12.975,-0.185,-0.01,,,0.010400000000000001,-0.002,0.9672000000000001,,0.0112,-0.008,0.9672000000000001,-0.0009000000000000001,-0.8200000000000001,583827.99,372.13,48.784166899999995,11.4724231,-50.19,-55.800000000000004,,12.975,-0.185,-0.01,,,0.010400000000000001,-0.002,0.9672000000000001,,0.0112,-0.008,0.9672000000000001,-0.0009000000000000001,-0.8200000000000001,583827.99,372.13,48.784166899999995,11.4724231,-50.19,-55.800000000000004,,12.975,-0.185,-0.01,,,0.010400000000000001,-0.002,0.9672000000000001,,0.0112,-0.008,0.9672000000000001,-0.0009000000000000001,-0.8200000000000001,583827.99,372.13,48.784166899999995,11.4724231,-50.19,-55.800000000000004,,12.975,-0.185,-0.01,,0,0,0,0,,8,0,0,0,0,0,0,0,0,1,0,1,0,0,1,0,2,0,121,1,1,1,1,2,9"
"1716990952634681580,,167856,,316831614,2766204032,""""""adma"""""",""""""GBIN"""""",""""""0101"""""",0,""""""0000"""""",30357,0,10,2,16973824,17167,6816,4,1229934624,,0.0098,-0.0021000000000000003,0.9619000000000001,,1.1678,0.37310000000000004,-0.6996,,1.17,0.37,-0.7000000000000001,,1.19,0.32,-0.71,,0.009600000000000001,-0.002,0.9620000000000001,,0.009600000000000001,-0.0088,0.9620000000000001,12.76,0.20500000000000002,0.0,0.0,0,0,12.765,0.0,-0.001,-0.8200000000000001,583820.93,0,0,0,0,0,0,0,0,10000,45.0,4367,8.4,48.7841691,11.472425699999999,-49.95,-55.61,0.008,0.008,0.015,,-6.83,-10.875,0.035,0.025,,0.047,0.047,0.093,309352550,2316,31,0.6000000000000001,17,17,0,0,0,39.0,""""""0"""""",0.36,0.04,123.0,237.86,373.03000000000003,46.300000000000004,0,0,0.0,0.0,0.0,0.0,0.0,0.0,372.13,309352610,2316,18,48.784166299999995,11.472421599999999,-50.26,-55.910000000000004,,12.975,-0.185,-0.015,,-6.91,-10.985,0.015,655.0,655.0,655.0,,0.01,0.01,0.01,0.01,0.01,0.02,0.005,0.003,-0.001,0.001,100,100,100,0,0,316831614114.0,3.16831614114e+17,,,-0.0724,0.0648,0.7476,,-0.0716,0.060000000000000005,0.748,-0.001,-0.8300000000000001,583822.33,371.75,48.7841625,11.4724104,-50.68,-56.74,,12.975,-0.19,-0.025,,,0.0088,-0.0028,0.9620000000000001,,0.009600000000000001,-0.0088,0.9620000000000001,-0.001,-0.81,583828.12,372.13,48.784166299999995,11.472421599999999,-50.26,-55.910000000000004,,12.975,-0.185,-0.015,,,0.0088,-0.0028,0.9620000000000001,,0.009600000000000001,-0.0088,0.9620000000000001,-0.001,-0.81,583828.12,372.13,48.784166299999995,11.472421599999999,-50.26,-55.910000000000004,,12.975,-0.185,-0.015,,,0.0088,-0.0028,0.9620000000000001,,0.009600000000000001,-0.0088,0.9620000000000001,-0.001,-0.81,583828.12,372.13,48.784166299999995,11.472421599999999,-50.26,-55.910000000000004,,12.975,-0.185,-0.015,,,0.0088,-0.0028,0.9620000000000001,,0.009600000000000001,-0.0088,0.9620000000000001,-0.001,-0.81,583828.12,372.13,48.784166299999995,11.472421599999999,-50.26,-55.910000000000004,,12.975,-0.185,-0.015,,,0.0088,-0.0028,0.9620000000000001,,0.009600000000000001,-0.0088,0.9620000000000001,-0.001,-0.81,583828.12,372.13,48.784166299999995,11.472421599999999,-50.26,-55.910000000000004,,12.975,-0.185,-0.015,,,0.0088,-0.0028,0.9620000000000001,,0.009600000000000001,-0.0088,0.9620000000000001,-0.001,-0.81,583828.12,372.13,48.784166299999995,11.472421599999999,-50.26,-55.910000000000004,,12.975,-0.185,-0.015,,,0.0088,-0.0028,0.9620000000000001,,0.009600000000000001,-0.0088,0.9620000000000001,-0.001,-0.81,583828.12,372.13,48.784166299999995,11.472421599999999,-50.26,-55.910000000000004,,12.975,-0.185,-0.015,,0,0,0,0,,8,0,0,0,1,0,0,0,0,1,0,1,0,0,1,0,2,0,122,1,1,1,1,2,9"
